[
{ "id" : "brewery_Alameda_Brewhouse", "type" : "brewery", "name" : "Alameda Brewhouse", "state" : "Oregon" },
{ "id" : "brewery_Anchor_Brewing", "type" : "brewery", "name" : "Anchor Brewing", "state" : "California" },
{ "id" : "brewery_Brasserie_d_Ecaussinnes", "type" : "brewery", "name" : "Brasserie d'Ecaussinnes", "state" : "Hainaut" },
{ "id" : "brewery_Brasserie_de_Blaugies", "type" : "brewery", "name" : "Brasserie de Blaugies", "state" : "Hainaut" },
{ "id" : "brewery_Brasserie_de_la_Senne", "type" : "brewery", "name" : "Brasserie de la Senne", "state" : "Vlaams Brabant" },
{ "id" : "brewery_Brasserie_Duyck", "type" : "brewery", "name" : "Brasserie Duyck", "state" : "" },
{ "id" : "brewery_Brasserie_La_Choulette", "type" : "brewery", "name" : "Brasserie La Choulette", "state" : "" },
{ "id" : "brewery_Brouwerij_Alken_Maes", "type" : "brewery", "name" : "Brouwerij Alken-Maes", "state" : "Hainaut" },
{ "id" : "brewery_Brouwerij_De_Ranke", "type" : "brewery", "name" : "Brouwerij De Ranke", "state" : "West-Vlaanderen" },
{ "id" : "brewery_Brouwerij_Liefmans", "type" : "brewery", "name" : "Brouwerij Liefmans", "state" : "Oost-Vlaanderen" },
{ "id" : "brewery_Brouwerij_Slaghmuylder", "type" : "brewery", "name" : "Brouwerij Slaghmuylder", "state" : "Oost-Vlaanderen" },
{ "id" : "brewery_De_Proef_Brouwerij", "type" : "brewery", "name" : "De Proef Brouwerij", "state" : "Oost-Vlaanderen" },
{ "id" : "brewery_Egan_Brewing", "type" : "brewery", "name" : "Egan Brewing", "state" : "Wisconsin" },
{ "id" : "brewery_Empyrean_Brewing_Company", "type" : "brewery", "name" : "Empyrean Brewing Company", "state" : "Nebraska" },
{ "id" : "brewery_Fort_Collins_Brewery", "type" : "brewery", "name" : "Fort Collins Brewery", "state" : "Colorado" },
{ "id" : "brewery_Jolly_Pumpkin_Artisan_Ales", "type" : "brewery", "name" : "Jolly Pumpkin Artisan Ales", "state" : "Michigan" },
{ "id" : "brewery_Kiuchi_Shuzou_Goushi_Kaisya", "type" : "brewery", "name" : "Kiuchi Shuzou Goushi Kaisya", "state" : "Kanto" },
{ "id" : "brewery_Kleinbrouwerij_de_Glazen_Toren", "type" : "brewery", "name" : "Kleinbrouwerij de Glazen Toren", "state" : "Oost-Vlaanderen" },
{ "id" : "brewery_Left_Hand_Brewing_Company", "type" : "brewery", "name" : "Left Hand Brewing Company", "state" : "Colorado" },
{ "id" : "brewery_Magic_Hat", "type" : "brewery", "name" : "Magic Hat", "state" : "Vermont" },
{ "id" : "brewery_Molson_Breweries_of_Canada", "type" : "brewery", "name" : "Molson Breweries of Canada", "state" : "Ontario" },
{ "id" : "brewery_Nebraska_Brewing_Company", "type" : "brewery", "name" : "Nebraska Brewing Company", "state" : "Nebraska" },
{ "id" : "brewery_Odell_Brewing", "type" : "brewery", "name" : "Odell Brewing", "state" : "Colorado" },
{ "id" : "brewery_Pelican_Pub___Brewery", "type" : "brewery", "name" : "Pelican Pub & Brewery", "state" : "Oregon" },
{ "id" : "brewery_Private_Weissbierbrauerei_G__Schneider___Sohn_GmbH", "type" : "brewery", "name" : "Private Weissbierbrauerei G. Schneider & Sohn GmbH", "state" : "" },
{ "id" : "brewery_Ridgeway_Brewing", "type" : "brewery", "name" : "Ridgeway Brewing", "state" : "Oxford" },
{ "id" : "brewery_Samuel_Smith_Old_Brewery__Tadcaster_", "type" : "brewery", "name" : "Samuel Smith Old Brewery (Tadcaster)", "state" : "North Yorkshire" },
{ "id" : "brewery_Sierra_Nevada_Brewing_Co_", "type" : "brewery", "name" : "Sierra Nevada Brewing Co.", "state" : "California" },
{ "id" : "brewery_Spanish_Peaks_Brewing", "type" : "brewery", "name" : "Spanish Peaks Brewing", "state" : "Montana" },
{ "id" : "brewery_Summit_Brewing", "type" : "brewery", "name" : "Summit Brewing", "state" : "Minnesota" },
{ "id" : "brewery_Tommyknocker_Brewery_and_Pub", "type" : "brewery", "name" : "Tommyknocker Brewery and Pub", "state" : "Colorado" },
{ "id" : "brewery_Unibroue", "type" : "brewery", "name" : "Unibroue", "state" : "Quebec", "latitude" :"51.38", "longitude" : "0.0" },
{ "id" : "brewery_Upstream_Brewing_Company_at_Legacy", "type" : "brewery", "name" : "Upstream Brewing Company at Legacy", "state" : "Nebraska" },
{ "id" : "brewery_Spaten_Franziskaner_Br__u", "type" : "brewery", "name" : "Spaten-Franziskaner-BrÃ¤u", "state" : "Bayern" },
{ "id" : "brewery_St__Stan_s_Brewing_Co_", "type" : "brewery", "name" : "St. Stan's Brewing Co.", "state" : "California" },
{ "id" : "brewery_Youngs___Company_Brewery", "type" : "brewery", "name" : "Youngs & Company Brewery", "state" : "", "latitude" :"51.38", "longitude" : "0.0", "reviews": "great beer!"}
]